"city","lat","lon"
"Shanghai", 31.2304, 121.4737
"Beijing", 39.9042, 116.4074
"Xi'an", 34.3416, 108.9398
"Harbin", 45.8038, 126.5350
"Nanjing", 32.0603, 118.7969
"Wuhan", 30.5931, 114.3054
"Taiyuan", 37.8706, 112.5489
"Changchun", 43.8171, 125.3235
"Hangzhou", 30.2741, 120.1551
